{
  "sources": [
    {
      "id": "zck_funerals",
      "name": "ZCK Kraków — Porządek pogrzebów",
      "type": "zck_funerals",
      "url": "https://www.zck-krakow.pl/funerals",
      "coords": { "lat": 50.0427, "lon": 19.9446 }
    },
    {
      "id": "podwawelskie_nekrologi",
      "name": "Parafia MB Fatimskiej (Podwawelskie) — Nekrologi",
      "type": "table_nekrologi_podwawelskie",
      "url": "https://www.podwawelskie.pl/aktualnosci/nekrologi.html",
      "coords": { "lat": 50.0419, "lon": 19.9178 }
    },
    {
      "id": "podwawelskie_ogloszenia",
      "name": "Parafia MB Fatimskiej (Podwawelskie) — Ogłoszenia",
      "type": "podwawelskie_ogloszenia",
      "url": "https://www.podwawelskie.pl/ogloszenia-duszpasterskie-1.html",
      "coords": { "lat": 50.0419, "lon": 19.9178 }
    },
    {
      "id": "ruczaj_intencje",
      "name": "Parafia Ruczaj — Intencje mszalne",
      "type": "intencje_simple",
      "url": "https://www.ruczaj.diecezja.pl/index.php/aktualnosci/intencje-mszalne",
      "coords": { "lat": 50.0165, "lon": 19.8897 }
    },
    {
      "id": "debniki_intencje",
      "name": "Parafia Dębniki (Salezjanie) — Intencje",
      "type": "intencje_debniki",
      "url": "https://debniki.sdb.org.pl/intencje/",
      "coords": { "lat": 50.0436, "lon": 19.9198 }
    },
    {
      "id": "pychowice_intencje",
      "name": "Parafia Pychowice — Intencje mszalne",
      "type": "intencje_pychowice",
      "url": "https://pychowicesdb.pl/informacje/intencje-mszalne",
      "coords": { "lat": 50.0266, "lon": 19.8847 }
    },
    {
      "id": "salwator_grobonet_nekrologi",
      "name": "Cmentarz Kraków–Salwator (Grobonet) — Nekrologi",
      "type": "grobonet_nekrologi",
      "url": "https://krakowsalwator.grobonet.com/nekrologi.php",
      "coords": { "lat": 50.0495, "lon": 19.9021 }
    },
    {
      "id": "karawan_nekrologi",
      "name": "Karawan — Nekrologi",
      "type": "funeral_home_nekrologi_generic",
      "url": "https://karawan.pl/nekrologi/",
      "coords": { "lat": 50.0575, "lon": 19.9608 }
    },
    {
      "id": "gabriel_nekrologi",
      "name": "Gabriel — Nekrologi",
      "type": "funeral_home_nekrologi_generic",
      "url": "https://www.gabriel24.pl/nekrologi/",
      "coords": { "lat": 50.0226, "lon": 19.9450 }
    }
  ]
}
